id,ident,type,name,latitude_deg,longitude_deg,elevation_ft,iso_region,municipality,scheduled_service,gps_code,iata_code,score
26555,VIDP,large_airport,Indira Gandhi International Airport,28.5665,77.103104,777,IN-DL,New Delhi,1,VIDP,DEL,51471
26434,VABB,large_airport,Chhatrapati Shivaji International Airport,19.08869934,72.86789703,39,IN-MM,Mumbai,1,VABB,BOM,1014471
35145,VOBL,large_airport,Kempegowda International Airport,13.1979,77.706299,3000,IN-KA,Bangalore,1,VOBL,BLR,51196
26618,VOMM,large_airport,Chennai International Airport,12.99000549,80.16929626,52,IN-TN,Chennai,1,VOMM,MAA,51146
26444,VAGO,large_airport,Dabolim Airport,15.38080025,73.83139801,150,IN-GA,Vasco da Gama,1,VOGO,GOI,871
26609,VOCI,large_airport,Cochin International Airport,10.152,76.401901,30,IN-KL,Kochi,1,VOCI,COK,996
26496,VECC,large_airport,Netaji Subhash Chandra Bose International Airport,22.65469933,88.44670105,16,IN-WB,Kolkata,1,VECC,CCU,1196
35141,VOHS,large_airport,Rajiv Gandhi International Airport,17.23131752,78.42985535,2024,IN-TG,Hyderabad,1,VOHS,HYD,1196
26629,VOTV,large_airport,Trivandrum International Airport,8.48211956,76.92009735,15,IN-KL,Thiruvananthapuram,1,VOTV,TRV,1046
26431,VAAH,medium_airport,Sardar Vallabhbhai Patel International Airport,23.07719994,72.63469696,189,IN-GJ,Ahmedabad,1,VAAH,AMD,1046
26563,VIJP,medium_airport,Jaipur International Airport,26.8242,75.812202,1263,IN-RJ,Jaipur,1,VIJP,JAI,1046
26603,VOBG,medium_airport,HAL Airport,12.94999981,77.66819763,2912,IN-KA,Bangalore,1,VOBG,,1046
26455,VAPO,medium_airport,Pune Airport,18.58209991,73.91970062,1942,IN-MM,Pune,1,VAPO,PNQ,796
26540,VIAR,large_airport,Sri Guru Ram Dass Jee International Airport,31.70960045,74.79730225,756,IN-PB,Amritsar,1,VIAR,ATQ,1046
26438,VABO,medium_airport,Vadodara Airport,22.336201,73.226303,129,IN-GJ,Vadodara,1,VABO,BDQ,996
26617,VOML,medium_airport,Mangalore International Airport,12.9612999,74.89009857,337,IN-KA,Mangalore,1,VOML,IXE,1021
26615,VOHY,medium_airport,Begumpet Airport,17.4531002,78.46759796,1742,IN-TG,Hyderabad,0,VOHY,BPM,471
26545,VIBN,medium_airport,Lal Bahadur Shastri Airport,25.45240021,82.85929871,266,IN-UP,Varanasi,1,VIBN,VNS,1046
26610,VOCL,large_airport,Calicut International Airport,11.13679981,75.95529938,342,IN-KL,Calicut,1,VOCL,CCJ,946
26494,VEBS,medium_airport,Biju Patnaik Airport,20.24440002,85.81780243,138,IN-OR,Bhubaneswar,1,VEBS,BBI,921
26607,VOCB,medium_airport,Coimbatore International Airport,11.02999973,77.04340363,1324,IN-TN,Coimbatore,1,VOCB,CJB,921
26501,VEGT,medium_airport,Lokpriya Gopinath Bordoloi International Airport,26.10610008,91.58589935,162,IN-AS,Guwahati,1,VEGT,GAU,921
26517,VEPT,medium_airport,Lok Nayak Jayaprakash Airport,25.59129906,85.08799744,170,IN-BR,Patna,1,VEPT,PAT,1046
26446,VAID,medium_airport,Devi Ahilyabai Holkar Airport,22.72179985,75.80110168,1850,IN-MP,Indore,1,VAID,IDR,971
26562,VIJO,medium_airport,Jodhpur Airport,26.25110054,73.04889679,717,IN-RJ,Jodhpur,1,VIJO,JDH,871
26616,VOMD,medium_airport,Madurai Airport,9.83450985,78.09339905,459,IN-TN,Madurai,1,VOMD,IXM,796
26491,VEBD,medium_airport,Bagdogra Airport,26.68120003,88.32859802,412,IN-WB,Siliguri,1,VEBD,IXB,796
26523,VEVZ,small_airport,Vishakhapatnam Airport,17.72120094,83.22450256,15,IN-AP,Visakhapatnam,1,VOVZ,VTZ,446
26570,VILK,medium_airport,Chaudhary Charan Singh International Airport,26.76059914,80.88929749,410,IN-UP,Lucknow,1,VILK,LKO,1046
26550,VICG,medium_airport,Chandigarh Airport,30.67350006,76.78849792,1012,IN-CH,Chandigarh,1,VICG,IXC,796
26461,VASU,medium_airport,Surat Airport,21.1140995,72.7417984,16,IN-GJ,,1,VASU,STV,246
30171,VAJJ,small_airport,Juhu Aerodrome,19.09810066,72.834198,13,IN-MM,Mumbai,0,VAJJ,,46
26620,VOPB,medium_airport,Vir Savarkar International Airport,11.64120007,92.72969818,14,IN-AN,Port Blair,1,VOPB,IXZ,796
26459,VARP,small_airport,Raipur Airport,21.180401,81.7388,1041,IN-CT,Raipur,1,VERP,RPR,796
26578,VISR,medium_airport,Sheikh ul Alam Airport,33.98709869,74.77420044,5429,IN-JK,Srinagar,1,VISR,SXR,796
26453,VANP,medium_airport,Dr. Babasaheb Ambedkar International Airport,21.09219933,79.04720306,1033,IN-MM,Naqpur,1,VANP,NAG,1046
26462,VAUD,medium_airport,Maharana Pratap Airport,24.61770058,73.89610291,1684,IN-RJ,Udaipur,1,VAUD,UDR,1021
26433,VAAU,medium_airport,Aurangabad Airport,19.86269951,75.39810181,1911,IN-MM,Aurangabad,1,VAAU,IXU,921
26519,VERC,medium_airport,Birsa Munda Airport,23.31430054,85.32170105,2148,IN-JH,Ranchi,1,VERC,IXR,921
26436,VABJ,medium_airport,Bhuj Airport,23.28779984,69.67019653,268,IN-GJ,Bhuj,1,VABJ,BHJ,821
26606,VOBZ,medium_airport,Vijayawada Airport,16.53039932,80.79679871,82,IN-AP,,1,VOBZ,VGA,796
26489,VEAT,medium_airport,Agartala Airport,23.88699913,91.24040222,46,IN-TR,Agartala,1,VEAT,IXA,796
26507,VEJT,medium_airport,Jorhat Airport,26.73150063,94.17549896,311,IN-AS,Jorhat,1,VEJT,JRH,796
26622,VOPN,medium_airport,Sri Sathya Sai Airport,14.14929962,77.79109955,1558,IN-AP,Puttaparthi,0,VOPN,PUT,246
3319,VE89,small_airport,Darbhanga Airport,26.19280052,85.91690063,156,IN-BR,,0,VE89,,46
3299,VA2C,small_airport,Gondia Airport,21.52619934,80.29039764,990,IN-MM,,0,VAGD,,46
26458,VARK,medium_airport,Rajkot Airport,22.30920029,70.77950287,441,IN-GJ,Rajkot,1,VARK,RAJ,1021
26439,VABP,medium_airport,Raja Bhoj International Airport,23.28750038,77.33740234,1711,IN-MP,Bhopal,1,VABP,BHO,921
26504,VEIM,medium_airport,Imphal Airport,24.76000023,93.896698,2540,IN-MN,Imphal,1,VEIM,IMF,921
26448,VAJM,medium_airport,Jamnagar Airport,22.46549988,70.01260376,69,IN-GJ,Jamnagar,1,VAJM,JGA,821
26569,VILH,medium_airport,Leh Kushok Bakula Rimpochee Airport,34.13589859,77.54650116,10682,IN-JK,Leh,1,VILH,IXL,796
26623,VORY,medium_airport,Rajahmundry Airport,17.11039925,81.81819916,151,IN-AP,Rajahmundry,1,VORY,RJA,796
26627,VOTP,small_airport,Tirupati Airport,13.63249969,79.54329681,350,IN-AP,Tirupati,1,VOTP,TIR,446
26512,VEMN,medium_airport,Dibrugarh Airport,27.48390007,95.01689911,362,IN-AS,Dibrugarh,1,VEMN,DIB,321
26450,VAKJ,medium_airport,Khajuraho Airport,24.81719971,79.91860199,728,IN-MP,Khajuraho,1,VAKJ,HJR,321
26546,VIBR,medium_airport,Kullu Manali Airport,31.87669945,77.15440369,3573,IN-HP,,0,VIBR,KUU,246
26539,VIAM,medium_airport,Ambala Air Force Station,30.36809921,76.8167038,909,IN-HR,,0,VIAM,,246
26538,VIAL,medium_airport,Allahabad Airport,25.44009972,81.73390198,322,IN-UP,Allahabad,0,VIAL,IXD,246
3340,VO52,small_airport,Harihar Airport,14.53509998,75.78739929,1750,IN-KA,,0,VO52,,46
26499,VEDX,small_airport,Kalaikunda Air Force Station,22.33950043,87.21450043,200,IN-WB,,0,VEDX,,46
3301,VAOZ,medium_airport,Nashik Airport,20.119101,73.912903,1900,IN-MM,Nasik,1,VAOZ,ISK,46
46518,IN-0024,small_airport,Baramati Airport,18.226944,74.590833,1978,IN-MM,Pune,0,,,-4
26628,VOTR,medium_airport,Tiruchirapally Civil Airport Airport,10.76539993,78.70970154,288,IN-TN,Tiruchirappally,1,VOTR,TRZ,996
26565,VIJU,medium_airport,Jammu Airport,32.68909836,74.83740234,1029,IN-JK,Jammu,1,VIJU,IXJ,971
26437,VABM,medium_airport,Belgaum Airport,15.85929966,74.61830139,2487,IN-KA,Belgaum,1,VOBM,IXG,821
26440,VABV,medium_airport,Bhavnagar Airport,21.75219917,72.18520355,44,IN-GJ,Bhavnagar,1,VABV,BHU,821
26521,VETZ,medium_airport,Tezpur Airport,26.70910072,92.78469849,240,IN-AS,,1,VETZ,TEZ,796
26502,VEGY,medium_airport,Gaya Airport,24.74430084,84.95120239,380,IN-BR,,1,VEGY,GAY,796
26447,VAJB,medium_airport,Jabalpur Airport,23.17779922,80.05200195,1624,IN-MP,,1,VAJB,JLR,796
26554,VIDN,medium_airport,Dehradun Airport,30.189699,78.180298,1831,IN-UL,Dehradun,1,VIDN,DED,796
26454,VANR,closed,Gandhinagar Airport,19.96369934,73.80760193,1959,IN-MM,Nashik,1,VANR,,796
26456,VAPR,medium_airport,Porbandar Airport,21.64870071,69.65720367,23,IN-GJ,Porbandar,1,VAPR,PBD,796
26509,VEKU,medium_airport,Silchar Airport,24.91290092,92.97869873,352,IN-AS,Silchar,1,VEKU,IXS,796
3296,VA1P,small_airport,Diu Airport,20.71310043,70.9210968,31,IN-GJ,Diu,1,VA1P,DIU,446
26445,VAHB,medium_airport,Hubli Airport,15.36170006,75.0848999,2171,IN-KA,Hubli,1,VOHB,HBX,446
26452,VAKS,medium_airport,Keshod Airport,21.31710052,70.270401,167,IN-GJ,,0,VAKS,IXK,246
26557,VIGG,medium_airport,Kangra Airport,32.1651001,76.26339722,2525,IN-HP,,0,VIGG,DHM,246
26576,VISM,small_airport,Shimla Airport,31.0818,77.068001,5072,IN-HP,,0,VISM,SLV,246
26605,VOBR,medium_airport,Bidar Air Force Station,17.90810013,77.48709869,2178,IN-KA,,0,VOBR,,246
26602,VOAT,medium_airport,Agatti Airport,10.82369995,72.1760025,14,IN-LD,,0,VOAT,AGX,246
26520,VERK,medium_airport,Rourkela Airport,22.256701,84.814598,659,IN-OR,,0,VERK,RRK,246
26547,VIBT,medium_airport,Bhatinda Air Force Station,30.27009964,74.75579834,662,IN-PB,,0,VIBT,BUP,246
26537,VIAG,medium_airport,Agra Airport,27.15579987,77.96089935,551,IN-UP,,0,VIAG,AGR,246
26604,VOBI,medium_airport,Bellary Airport,15.16279984,76.88279724,30,IN-KA,Bellary,0,VOBI,BEP,246
26613,VODG,medium_airport,Dundigul Air Force Academy,17.62719917,78.40339661,2013,IN-TG,Hyderabad,0,VODG,,246
26506,VEJS,medium_airport,Sonari Airport,22.8132,86.1688,475,IN-JH,Jamshedpur,0,VEJS,IXW,246
26567,VIKO,medium_airport,Kota Airport,25.16020012,75.84559631,896,IN-RJ,Kota,0,VIKO,KTU,246
26571,VIPK,medium_airport,Pathankot Airport,32.233611,75.634444,1017,IN-PB,Pathankot,1,VIPK,IXP,246
26621,VOPC,medium_airport,Pondicherry Airport,11.968,79.812,134,IN-TN,Pondicherry,0,VOPC,PNY,246
26608,VOCC,small_airport,Willingdon Island Air Base,9.947389603,76.27310181,8,IN-KL,Kochi,0,VOCC,,121
26619,VONS,small_airport,Nagarjuna Sagar Airport,16.54269981,79.3187027,658,IN-AP,,0,VONS,,46
26493,VEBK,small_airport,Bokaro Airport,23.64349937,86.14890289,715,IN-BR,,0,VEBK,,46
3286,VA1E,small_airport,Bhilai Airport,21.2942009,81.37950134,1014,IN-CT,,0,VA1E,,46
3291,VA1K,small_airport,Raedhanpur Airport,23.22229958,68.89129639,135,IN-GJ,,0,VA1K,,46
26548,VIBW,small_airport,Bhiwani Airport,28.83699989,76.17910004,720,IN-HR,,0,VIBW,,46
3310,VE36,small_airport,Nuagaon Airport,20.51169968,83.44809723,656,IN-OR,,0,VE36,,46
26572,VIPL,small_airport,Patiala Airport,30.31480026,76.36450195,820,IN-PB,,0,VIPL,,46
26580,VIUT,small_airport,Uttarlai Airport,25.81299973,71.4822998,500,IN-RJ,,0,VIUT,,46
26614,VOHK,small_airport,Hakimpet Airport,17.55349922,78.52490234,2020,IN-TG,,0,VOHK,,46
26574,VIRB,small_airport,Fursatganj Airport,26.24850082,81.38050079,360,IN-UP,,0,VIRB,,46
26551,VICX,medium_airport,Kanpur Airport,26.404301,80.410103,410,IN-UP,Kanpur,0,VICX,KNU,46
3288,VA1G,medium_airport,"Rewa Airport, Chorhata, REWA",24.503401,81.220299,1000,IN-MP,Rewa,1,VA1G,REW,46
26625,VOSX,small_airport,Coimbatore Air Force Station,11.01360035,77.15969849,1250,IN-TN,Sulur,0,VOSX,,46
26631,VOYK,small_airport,Yelahanka Air Force Station,13.13549995,77.60600281,3045,IN-KA,Yelahanka,0,VOYK,,46
312234,IN-0090,small_airport,Deoghar Airstrip,24.44666667,86.70694444,361,IN-JH,,0,,,-4
299921,IN-0068,closed,kanha,22.0926386,80.59553146,,IN-MP,,0,,,-4
301051,IN-0074,small_airport,Barbil Aerodrome (JSPL),22.04861389,85.37419444,,IN-OR,,0,,,-4
309893,VEKJ,small_airport,KEONJHAR AIRPORT,21.69666667,85.58166667,,IN-OR,,1,VEKJ,,-4
44908,IN-0013,small_airport,Nadirgul Airport,17.30606651,78.56048584,1811,IN-TG,,0,,,-4
309591,IN-0087,heliport,GAUCHER,30.28444444,79.16166667,,IN-UL,,0,,,-4
46481,IN-0023,small_airport,Amreli Airstrip,21.61985086,71.22333527,,IN-GJ,Amreli,0,,,-4
301145,IN-0077,closed,Bhagalpur Airport,25.249359,87.009779,,IN-BR,Bhagalpur,0,,,-4
44629,IN-VOHP,small_airport,"Kopal,Hospet Airport",15.358334,76.51667,1698,IN-KA,Hospete,0,,,-4
44630,VOKP,small_airport,Koppal Aerodrome,15.35910034,76.21929932,1700,IN-KA,Koppal,0,VOKP,,-4
46581,IN-0053,small_airport,Shibpur Airstrip,13.2363163,93.04973066,,IN-AN,Madhupur,0,,,-4
26451,VAKP,medium_airport,Kolhapur Airport,16.66469955,74.28939819,1996,IN-MM,,1,VAKP,KLH,796
26579,VIST,small_airport,Satna Airport,24.5623,80.854897,1060,IN-MP,,1,VIST,TNI,796
26490,VEAZ,heliport,Tuirial Airfield,23.7432,92.8024,1093,IN-MZ,Aizawl,0,VEAZ,,796
26513,VEMR,medium_airport,Dimapur Airport,25.88389969,93.77110291,487,IN-NL,Dimapur,1,VEMR,DMU,796
26558,VIGR,medium_airport,Gwalior Airport,26.29330063,78.22779846,617,IN-MP,Gwalior,1,VIGR,GWL,796
26566,VIKA,small_airport,Kanpur Civil Airport,26.441401,80.364899,411,IN-UP,Kanpur,0,VIKA,,796
26511,VELR,medium_airport,North Lakhimpur Airport,27.2954998,94.09760284,330,IN-AS,Lilabari,1,VELR,IXI,796
26492,VEBI,medium_airport,Shillong Airport,25.70359993,91.97869873,2910,IN-ML,Shillong,1,VEBI,SHL,796
26612,VOCX,medium_airport,Car Nicobar Air Force Station,9.152509689,92.81960297,5,IN-AN,,0,VOCX,CBD,246
26488,VEAN,medium_airport,Along Airport,28.1753006,94.80200195,900,IN-AR,,0,VEAN,IXV,246
26498,VEDB,medium_airport,Dhanbad Airport,23.83399963,86.4253006,847,IN-BR,,0,VEDB,DBD,246
26514,VEMZ,medium_airport,Muzaffarpur Airport,26.11910057,85.31369781,174,IN-BR,,0,VEMZ,MZU,246
26441,VADN,medium_airport,Daman Airport,20.43440056,72.84320068,33,IN-DD,,0,VADN,NMB,246
26552,VIDD,medium_airport,Safdarjung Airport,28.58449936,77.20580292,705,IN-DL,,0,VIDD,,246
26559,VIHR,medium_airport,Hissar Airport,29.17939949,75.75530243,700,IN-HR,,0,VIHR,HSS,246
26575,VISA,medium_airport,Sirsa Air Force Station,29.56060028,75.00610352,650,IN-HR,,0,VISA,,246
26581,VIUX,medium_airport,Udhampur Air Force Station,32.90219879,75.15619659,2066,IN-JK,,0,VIUX,,246
26457,VARG,medium_airport,Ratnagiri Airport,17.013599,73.327797,305,IN-MM,,0,VARG,RTC,246
26443,VAGN,small_airport,Guna Airport,24.654699,77.347298,1600,IN-MP,,0,VAGN,GUX,246
26568,VILD,medium_airport,Ludhiana Airport,30.85470009,75.95259857,834,IN-PB,,0,VILD,LUH,246
26564,VIJR,medium_airport,Jaisalmer Airport,26.88870049,70.86499786,751,IN-RJ,,0,VIJR,JSA,246
26508,VEKR,medium_airport,Kailashahar Airport,24.30820084,92.00720215,79,IN-TR,,0,VEKR,IXH,246
26516,VEPH,medium_airport,Panagarh Air Force Station,23.47430038,87.42749786,240,IN-WB,,0,VEPH,,246
26432,VAAK,medium_airport,Akola Airport,20.698999,77.058601,999,IN-MM,Akola,0,VAAK,AKD,246
26549,VIBY,medium_airport,Bareilly Air Force Station,28.42210007,79.45079803,580,IN-UP,Bareilly,0,VIBY,BEK,246
26543,VIBK,medium_airport,Nal Airport,28.07060051,73.2071991,750,IN-RJ,Bikaner,0,VIBK,BKB,246
26435,VABI,medium_airport,Bilaspur Airport,21.9884,82.111,899,IN-CT,Bilaspur,0,VEBU,PAB,246
26500,VEGK,medium_airport,Gorakhpur Airport,26.73970032,83.4496994,259,IN-UP,Gorakhpur,1,VEGK,GOP,246
3312,VE44,medium_airport,Hashimara Air Force Station,26.69829941,89.36910248,340,IN-WB,Jalpaiguri,0,VE44,,246
26611,VOCP,medium_airport,Kadapa Airport,14.51,78.772778,430,IN-AP,Kadapa,1,VOCP,CDP,246
26449,VAKE,medium_airport,Kandla Airport,23.1127,70.100304,96,IN-GJ,Kandla,1,VAKE,IXY,246
26573,VIPT,medium_airport,Pantnagar Airport,29.03339958,79.47370148,769,IN-UP,Pantnagar,0,VIPT,PGH,246
26624,VOSM,medium_airport,Salem Airport,11.7833004,78.06559753,1008,IN-TN,Salem,0,VOSM,SXV,246
26524,VEZO,medium_airport,Ziro Airport,27.588301,93.828102,5403,IN-AR,Ziro,0,VEZO,ZER,246
3343,VO94,small_airport,Campbell Bay Airport,7.013040066,93.92279816,16,IN-AN,,0,VO94,,46
3317,VE67,small_airport,Machuka Advanced Landing Ground,28.60245801,94.12613869,7900,IN-AR,,0,VE67,,46
3320,VE91,small_airport,Vijaynagar Advanced Landing Ground,27.1935997,97.00370026,4167,IN-AR,,0,VE91,,46
3308,VE24,small_airport,Sookerating Airport,27.55290031,95.57060242,400,IN-AS,,0,VE24,,46
30356,VERU,small_airport,Rupsi India Airport,26.13969994,89.91000366,131,IN-AS,,0,VERU,RUP,46
3311,VE41,small_airport,Giridih Airport,24.20190048,86.28980255,1000,IN-BR,,0,VE41,,46
3315,VE54,small_airport,Daltonganj Airport,24.01930046,84.0951004,803,IN-BR,,0,VE54,,46
26518,VEPU,small_airport,Purnea Airport,25.75959969,87.41000366,129,IN-BR,,0,VEPU,,46
30325,VERL,small_airport,Raxaul Airport,26.9666996,84.83329773,259,IN-BR,,0,VERL,,46
26442,VADS,small_airport,Deesa Airport,24.26790047,72.20439911,485,IN-GJ,,0,VADS,,46
3322,VI20,small_airport,Bhilwara Airport,28.07710075,76.20500183,955,IN-HR,,0,VI20,,46
3323,VI40,small_airport,Karnal Airport,29.71409988,77.03749847,829,IN-HR,,0,VI40,,46
3331,VI71,small_airport,Kalka Airport,30.8245697,76.88365173,1700,IN-HR,,0,VI71,,46
29775,VECK,small_airport,Chakulia Airport,22.4605999,86.70780182,430,IN-JH,,0,VECK,,46
3325,VI57,small_airport,Thoise Airport,34.65259933,77.37580109,10046,IN-JK,,0,VI57,,46
3327,VI65,small_airport,Kargil Airport,34.52429962,76.15589905,9604,IN-JK,,0,VI65,,46
3328,VI66,small_airport,Fukche Advanced Landing Ground,32.93740082,79.21320343,13700,IN-JK,,0,VI66,,46
26541,VIAW,small_airport,Awantipur Air Force Station,33.87659836,74.97570038,5393,IN-JK,,0,VIAW,,46
42716,IN-0003,small_airport,Daulat Beg Oldi Advanced Landing Ground,35.39646671,77.92896509,16200,IN-JK,,0,,,46
3283,VA1B,small_airport,Chanda Airport,19.99469948,79.22250366,625,IN-MM,,0,VA1B,,46
3293,VA1M,small_airport,Karad Airport,17.28590012,74.15809631,1890,IN-MM,,0,VA1M,,46
3303,IN-VA47,small_airport,Jalgaon Airport,20.96220016,75.62670135,800,IN-MM,,0,VA47,,46
3305,IN-VA53,small_airport,Dhulia Airport,20.92650032,74.73709869,920,IN-MM,,0,VA53,,46
3284,VA1C,small_airport,Birlagram Airport,23.44689941,75.42030334,1541,IN-MP,,0,VA1C,,46
3287,VA1F,small_airport,Sidhi Airport,24.40229988,81.81479645,1093,IN-MP,,0,VA1F,,46
3290,VA1J,small_airport,Dhana Airport,23.75359917,78.85579681,1706,IN-MP,,0,VA1J,,46
3292,VA1L,small_airport,Amla Airport,21.92639923,78.11360168,2435,IN-MP,,0,VA1L,,46
3294,VA1N,small_airport,Nimach Airport,24.43079948,74.86779785,1617,IN-MP,,0,VA1N,,46
3295,VA1O,small_airport,Burhar Airport,23.23520088,81.50370026,1500,IN-MP,,0,VA1O,,46
3300,VA2D,small_airport,Ratlam Airport,23.38139915,75.02559662,1702,IN-MP,,0,VA2D,,46
3321,VE96,small_airport,Thuniabhand Airport,22.00160027,78.91719818,2182,IN-MP,,0,VE96,,46
3334,VI76,small_airport,Band Tal Airport,26.00009918,78.26180267,790,IN-MP,,0,VI76,,46
3316,VE62,small_airport,Cuttack Airport,20.5496006,85.88629913,115,IN-OR,,0,VE62,,46
26505,VEJH,small_airport,Jharsuguda Airport,21.91349983,84.05039978,751,IN-OR,,0,VEJH,,46
26522,VEUK,small_airport,Utkela Airport,20.09740067,83.18379974,680,IN-OR,,0,VEUK,,46
3336,VI88,small_airport,Jallowal Airport,31.55999947,75.34130096,741,IN-PB,,0,VI88,,46
26560,VIHX,small_airport,Halwara Air Force Station,30.74850082,75.62979889,790,IN-PB,,0,VIHX,,46
3289,VA1H,small_airport,Ondwa Airport,25.14150047,74.6115036,1450,IN-RJ,,0,VA1H,,46
3297,VA2A,small_airport,Phalodi Airport,27.11289978,72.38899994,781,IN-RJ,,0,VA2A,,46
3302,IN-VA38,small_airport,Sirohi Airport,24.89509964,72.84590149,1000,IN-RJ,,0,VA38,,46
3304,IN-VA51,small_airport,Banswara Airport,23.5897007,74.31269836,700,IN-RJ,,0,VA51,,46
3306,IN-VA74,small_airport,Abu Road Airport,24.49419975,72.78150177,875,IN-RJ,,0,VA74,,46
3324,VI43,small_airport,Suratgarh New Airport,29.38780022,73.90390015,554,IN-RJ,,0,VI43,,46
3329,VI69,small_airport,Jhunjhunu Airport,28.1067009,75.37560272,1110,IN-RJ,,0,VI69,,46
3330,VI70,small_airport,Pilani New Airport,28.34880066,75.59369659,1100,IN-RJ,,0,VI70,,46
3332,VI73,small_airport,Nagaur Airport,27.20829964,73.71140289,950,IN-RJ,,0,VI73,,46
3338,VO26,small_airport,Kovilpatti Airport,9.153889656,77.82119751,325,IN-TN,,0,VO26,,46
3344,VO95,small_airport,Hosur Airport,12.66129971,77.76719666,3116,IN-TN,,0,VO95,,46
26601,VOAR,small_airport,Arkonam Airport,13.07120037,79.69120026,265,IN-TN,,0,VOAR,,46
30005,VEKM,small_airport,Kamalpur Airport,24.13170052,91.81420135,131,IN-TR,,0,VEKM,IXQ,46
3285,VA1D,small_airport,Muirpur Airport,24.12520027,83.04060364,1122,IN-UP,,0,VA1D,,46
3298,VA2B,small_airport,Meerut Sw Airport,28.9048996,77.6772995,732,IN-UP,,0,VA2B,,46
3335,VI82,small_airport,Bharkot Airport,30.58289909,78.3234024,2983,IN-UP,,0,VI82,,46
3337,VI90,small_airport,Akbarpur Airport,26.44759941,82.56819916,288,IN-UP,,0,VI90,,46
26553,VIDF,small_airport,Pithorgarh Airport,29.59359932,80.23919678,4910,IN-UP,,0,VIDF,,46
26556,VIDX,small_airport,Hindon Air Force Station,28.70770073,77.35890198,700,IN-UP,,0,VIDX,,46
26561,VIJN,small_airport,Jhansi Airport,25.49119949,78.55840302,801,IN-UP,,0,VIJN,,46
26577,VISP,small_airport,Sarsawa Air Force Station,29.9939003,77.4253006,891,IN-UP,,0,VISP,,46
3307,VE23,small_airport,Burnpur Airport,23.63150024,86.97550201,310,IN-WB,,0,VE23,,46
26542,VIAX,small_airport,Adampur Airport,31.4338,75.758797,775,IN-PB,Adampur,1,VIAX,AIP,46
26510,VELP,medium_airport,Lengpui Airport,23.84059906,92.61969757,1398,IN-MZ,Aizawl,1,VELP,AJL,46
32206,VEBG,small_airport,Balurghat Airport,25.26169968,88.79560089,78,IN-WB,Balurghat,0,VEBG,RGH,46
3309,VEPI,small_airport,Barrackpore Air Force Station,22.78100014,88.35919952,18,IN-WB,Barrackpore,0,VEPI,,46
29689,VEBA,small_airport,Behala Airport,22.5042305,88.29342651,10,IN-WB,Behala,0,VEBA,,46
26630,VOTX,small_airport,Tambaram Air Force Station,12.90719986,80.12190247,90,IN-TN,Chennai,0,VOTX,,46
26495,VECA,small_airport,Chabua Air Force Station,27.46220016,95.11769867,367,IN-AS,Dibrugarh,0,VECA,,46
32589,VODK,closed,Dunakonda Airport,15.8063,79.4882,472,IN-AP,Dunakonda,0,VODK,,46
31698,IN-JGB,small_airport,Jagdalpur Airport,19.07430077,82.03679657,1822,IN-CT,Jagdalpur,0,,JGB,46
32183,VEJP,small_airport,Jeypore Airport,18.87999916,82.55200195,1952,IN-OR,Jeypore,0,VEJP,PYB,46
3333,VI75,small_airport,IIT Kanpur Airport,26.520399,80.232904,400,IN-UP,Kalyanpur,0,,,46
31691,VEKW,small_airport,Khowai Airport,24.061899,91.603897,95,IN-TR,Khowai,0,VEKW,IXN,46
32576,VILP,small_airport,Lalitpur Airport,24.71699905,78.41699982,1204,IN-UP,Lalitpur,0,VILP,,46
3341,VO55,medium_airport,Murod Kond Airport,18.411501,76.464699,2136,IN-MM,Latur,1,VALT,LTU,46
26544,VIBL,small_airport,Bakshi Ka Talab Air Force Station,26.98830032,80.89309692,385,IN-UP,Lucknow,0,VIBL,,46
31799,VEMH,small_airport,Malda Airport,25.033001,88.133003,79,IN-WB,Malda,0,VEMH,LDA,46
31996,VOMY,small_airport,Mysore Airport,12.23,76.655833,2349,IN-KA,Mysore,0,VOMY,MYQ,46
30180,VAND,medium_airport,Nanded Airport,19.18330002,77.3167038,1250,IN-MM,Nanded,1,VAND,NDC,46
26515,VENP,small_airport,Nawapara Airport,20.87000084,82.51959991,1058,IN-CT,Nawapara,0,VENP,,46
42723,IN-NVY,small_airport,Neyveli Airport,11.61295605,79.5273819,184,IN-TN,Neyveli,0,VONV,NVY,46
31692,VEPG,small_airport,Pasighat Airport,28.06609917,95.33560181,477,IN-AR,Pasighat,0,VEPG,IXT,46
32215,IN-RJI,small_airport,Rajouri Airport,33.37789917,74.31520081,3000,IN-JK,Rajouri,0,,RJI,46
32591,VORM,small_airport,Ramnad Naval Air Station,9.325090408,78.97149658,16,IN-TN,Ramnad,0,VORM,,46
26503,VEHK,small_airport,Hirakud Airport,21.5802002,84.00569916,658,IN-OR,Sambalpur,0,VEHK,,46
26460,VASL,medium_airport,Solapur Airport,17.62800026,75.93479919,1584,IN-MM,Solapur,0,VASL,SSE,46
32433,IN-TEI,small_airport,Tezu Airport,27.94120026,96.13439941,800,IN-AR,Tezu,0,VETJ,TEI,46
26626,VOTJ,small_airport,Tanjore Air Force Base,10.72239971,79.10160065,253,IN-TN,Thanjavur,0,VOTJ,TJV,46
3342,VO80,small_airport,Tuticorin Airport,8.724241,78.025803,129,IN-TN,Thoothukudi,1,VOTK,TCR,46
3318,VE85,small_airport,Bentayan Airport,23.0951004,75.88529968,1666,IN-MP,Ujjain,0,,,46
32592,VOVR,small_airport,Vellore Airport,12.90880013,79.06680298,764,IN-TN,Vellore,0,VOVR,,46
32647,VOWA,small_airport,Warangal Airport,17.9144,79.602203,935,IN-TG,Warangal,0,VOWA,WGC,46
35130,IN-0002,heliport,Tawang Air Force Station,27.58846092,91.87769318,8756,IN-AR,,0,,,21
35129,IN-0001,heliport,Siachen Glacier AFS Airport,35.5,77,22000,IN-JK,,0,,,21
26497,VECO,small_airport,Cooch Behar Airport,26.33049965,89.46720123,138,IN-WB,,0,VECO,COH,-3
42731,IN-0010,small_airport,Walong Advanced Landing Ground,28.129673,97.01966095,,IN-AR,,0,,,-4
301058,IN-0075,heliport,Itanagar (Naharlagun),27.111675,93.69610556,,IN-AR,,0,,,-4
301059,IN-0076,heliport,Itanagar (Naharlagun),27.111675,93.69610556,466,IN-AR,,0,,,-4
46282,IN-0016,closed,Ledo Airfield,27.3025,95.737222,,IN-AS,,0,,,-4
46285,IN-0019,closed,Dinjan Airfield,27.538017,95.269447,,IN-AS,,0,,,-4
300448,IN-0066,small_airport,Madhubani Airport,26.32916667,86.06,,IN-BR,,0,,,-4
300449,IN-0067,small_airport,Madhubani Airport,26.32916667,86.06,,IN-BR,,0,,,-4
311047,IN-0091,small_airport,saharsa airstrip,25.89194444,86.5825,,IN-BR,,0,,,-4
301046,IN-0072,small_airport,Raigarh Airport (JSPL),21.93528056,83.35021389,,IN-CT,,0,,,-4
330834,IN-0103,small_airport,INDRA GANDHI AIRPORT,0,0,,IN-DL,,0,,,-4
306912,IN-0081,heliport,Annandale Helipad,31.11138889,77.15694444,6120,IN-HP,,0,,,-4
306913,IN-0082,heliport,Ajog Helipad,32.92194444,76.458,7460,IN-HP,,0,,,-4
309944,IN-0089,small_airport,Noamundi Airport,22.19222222,85.54888889,,IN-JH,,0,,,-4
42717,IN-0004,heliport,Leh Helipad,34.12866974,77.53653717,10682,IN-JK,,0,,,-4
301040,IN-0070,small_airport,Vijayanagar Aerodrome (JSW),15.17496667,76.63494722,1670,IN-KA,,0,VOJV,VDY,-4
301043,IN-0071,small_airport,Baldota Koppal Aerodrome,15.36009444,76.22005278,,IN-KA,,0,,,-4
330867,IN-0104,medium_airport,@@ Online Istikhara for Love Problem +91-9828783978 (>,0,0,,IN-KA,,1,,,-4
315328,IN-0095,heliport,Perunad Helipad,9.3539,76.86489,,IN-KL,,1,,,-4
42729,IN-0008,heliport,Kavaratti Helipad,10.54166794,72.61604309,,IN-LD,,0,,,-4
44582,IN-0015,small_airport,Baljek Airport,25.66148758,90.34503937,,IN-ML,,1,,,-4
325010,IN-0102,closed,Erase Me 16,-0.5,0,,IN-MM,,0,,,-4
44475,IN-0014,closed,Koirengei Airstrip,24.87245941,93.92568207,,IN-MN,,0,,,-4
46623,IN-0060,small_airport,Khargon Govt. Airstrip,21.81003019,75.55443764,,IN-MP,,0,,,-4
309587,IN-0086,small_airport,CHINDWARA AIRFIELD,22,78.93,,IN-MP,,0,,,-4
46550,IN-0027,heliport,Thuampui Helipad,23.74586667,92.73673333,3214,IN-MZ,,0,,,-4
46551,IN-0028,heliport,Pukpui Helipad,22.94226667,92.76885,,IN-MZ,,0,,,-4
46552,IN-0029,heliport,Lunglei Helipad,22.86838333,92.7633,,IN-MZ,,0,,,-4
46554,IN-0031,heliport,Vairengte Helipad,24.47891667,92.75393333,,IN-MZ,,0,,,-4
301049,IN-0073,small_airport,Angul Airport (JSPL),20.91195,85.03258333,,IN-OR,,0,,,-4
311049,IN-0092,small_airport,Jajpur ( Sukinda ) Airstrip,21.03194444,85.75388889,400,IN-OR,,0,,,-4
311106,IN-0093,small_airport,Vedanta Lanjigarh Airstrip,19.71944444,83.39361111,,IN-OR,,0,,,-4
312280,IN-0094,closed,no airport,20.46668667,83.48333056,,IN-OR,,0,,,-4
308280,IN-0084,closed,Salwas,26.141647,73.097062,,IN-RJ,,0,,,-4
308281,IN-0085,small_airport,Airport,26.436257,73.102823,,IN-RJ,,0,,,-4
42730,IN-0009,heliport,Gangtok Helipad,27.35569763,88.61410522,,IN-SK,,0,,,-4
44362,IN-0012,small_airport,Pakyong Airport (Under Construction),27.2313,88.587196,4590,IN-SK,,0,,,-4
42721,IN-0005,closed,Kayathar Airstrip,8.971388817,77.82062531,,IN-TN,,0,,,-4
42722,IN-0006,closed,Chettinad Airstrip,10.16499615,78.79376984,,IN-TN,,0,,,-4
46287,IN-0020,closed,Ulundurpet Airstrip,11.68854875,79.32137489,,IN-TN,,0,,,-4
46628,IN-0063,closed,Cholavaram Airstrip,13.21024193,80.1523447,,IN-TN,,0,,,-4
300715,IN-0069,small_airport,Sultanpur,26.2475,82.0425,,IN-UP,,1,,,-4
46283,IN-0017,closed,Dudhkundi Airfield,22.32459157,87.10741997,,IN-WB,,0,,,-4
46284,IN-0018,closed,Piardoba Airfield,22.98950855,87.29959488,,IN-WB,,0,,,-4
302122,IN-0078,closed,Bishnupur Airfield,23.03392669,87.35486984,,IN-WB,,0,,,-4
302134,IN-0079,closed,Guskhara Airfield,23.471667,87.794167,,IN-WB,,0,,,-4
302135,IN-0080,closed,Pandaveswar Airfield,23.64130052,87.34869003,,IN-WB,,0,,,-4
46556,IN-0033,small_airport,Aamby Valley Airport,18.60961667,73.37758333,2262,IN-MM,Aamby Valley City,0,,,-4
327453,VIKG,medium_airport,Kishangarh Airport,26.601473,74.814147,,IN-RJ,Ajmer,1,VIKG,KQH,-4
317900,IN-0096,small_airport,Akli Airport,25.8077,70.2943,230,IN-RJ,Akli,0,,,-4
298454,VIAH,small_airport,Dhanipur Airstrip,27.86085631,78.14686775,,IN-UP,Aligarth,0,VIAH,,-4
299082,IN-0065,small_airport,Amravati (Belora) Airstrip,20.81334851,77.71790743,1125,IN-MM,Amravati,0,,,-4
43966,IN-0011,medium_airport,Jakkur Aerodrome,13.07674,77.597645,3013,IN-KA,Bengaluru,0,VOJK,,-4
306915,IN-0083,heliport,Bilaspur Helipad,31.34513889,76.75675,1685,IN-HP,Bilaspur,0,,,-4
46574,IN-0051,heliport,"Aviation Research Centre, RAW Headquarter Helipad",30.70645,77.8615,,IN-UP,Chakrata,0,,,-4
44474,VEDZ,small_airport,Daporijo Airport,27.98550034,94.22280121,750,IN-AR,Daporijo,0,VEDZ,DEP,-4
46610,IN-0058,closed,Dhubulia Airstrip,23.49298469,88.45401764,,IN-WB,Dhubulia,0,,,-4
46611,IN-0059,closed,Digri Airstrip,22.78544033,87.36225128,,IN-WB,Digri,0,,,-4
317984,IN-0100,small_airport,Sido Kanhu Airport,24.231185,87.269989,470,IN-JH,Dumka,0,,,-4
317982,VEDG,medium_airport,Kazi Nazrul Islam Airport,23.6225,87.243,300,IN-WB,Durgapur,1,VEDG,RDP,-4
317983,IN-0099,small_airport,Durgapur Steel Plant Airport,23.58331,87.339787,290,IN-WB,Durgapur,0,,,-4
46512,IN-0025,small_airport,Faizabad Airport,26.7511282,82.1543651,350,IN-UP,Faizabad,1,,,-4
46566,IN-0043,heliport,STC BSF Indian Army Helipad,24.3267,93.67546667,,IN-MN,Gangpimual,0,,,-4
46567,IN-0044,heliport,PAP Complex Heliport,31.29208333,75.6072,766,IN-PB,Jalandhar,0,,,-4
46608,IN-0056,closed,Kalyan airstrip,19.17921973,73.13918352,,IN-MM,Kalyan,0,,,-4
46607,IN-0055,closed,Kanchrapara Airfield,22.92293299,88.45992923,,IN-WB,Kanchrapara,0,,,-4
46568,IN-0045,heliport,Catholic Medical Centre Helipad,24.8062,93.94275,,IN-MN,Kangla,0,,,-4
329504,VOKN,medium_airport,Kannur International Airport,11.918614,75.547211,330,IN-KL,Kannur,1,VOKN,CNN,-4
46624,IN-0061,small_airport,Khandwa Airport,21.85711746,76.33695602,,IN-MP,Khandwa,0,,,-4
46572,IN-0049,heliport,Kohima Helipad,25.66306667,94.11393333,,IN-NL,Kohima,0,,,-4
46562,IN-0039,heliport,Lebong Helipad,27.05908333,88.27773333,,IN-WB,Lebong,0,,,-4
317981,IN-0098,heliport,Maithon Heliport,23.785,86.7935,529,IN-JH,Maithon,0,,,-4
46575,IN-0052,heliport,Mathura Heliport,27.46423333,77.68241667,,IN-UP,Mathura,0,,,-4
46377,IN-0022,heliport,Kunjali Helipad,18.89527337,72.80849397,,IN-MM,Mimbai,0,,,-4
42724,IN-0007,heliport,Minicoy Helipad,8.273630142,73.02230072,,IN-LD,Minicoy Island,0,,,-4
46376,IN-0021,heliport,Shikra Naval Helibase,18.91334568,72.82921135,,IN-MM,Mumbai,0,,,-4
46569,IN-0046,heliport,Butcher Island Helipad,18.9623,72.90308333,,IN-MM,Mumbai,0,,,-4
46570,IN-0047,heliport,Mahalaxmi Race Course Helipad,18.98203333,72.82156667,,IN-MM,Mumbai,0,,,-4
46571,IN-0048,heliport,Raj Bhavan Helipad,18.94265,72.79401667,,IN-MM,Mumbai,0,,,-4
46564,IN-0041,heliport,HQ Eastern Air Command Helipad,25.53818333,91.82655,,IN-ML,Myliem,0,,,-4
46560,IN-0037,heliport,Namchi Helipad,27.15673333,88.32206667,,IN-SK,Nayabazar,0,,,-4
331083,IN-0105,small_airport,Muhammad Ali Khan,0,0,,IN-DL,New Delhi,1,,,-4
314033,OMN,small_airport,Osmanabad Airport,18.281,76.0574,2277,IN-MM,Osmanabad,0,,OMN,-4
46563,IN-0040,heliport,Pedong Helipad,27.15593333,88.61065,,IN-SK,Pedong,0,,,-4
46559,IN-0036,heliport,Pelling Helipad,27.3005,88.23085,,IN-SK,Pelling City,0,,,-4
46573,IN-0050,heliport,Phalodi Airfield,27.11283333,72.389,,IN-RJ,Phalodi,0,,,-4
311989,IN-0088,small_airport,Poonch Airport,33.76875,74.083753,3219,IN-JK,Poonch,0,,,-4
46606,IN-0054,closed,Charra Airfield,23.36577729,86.43673897,,IN-WB,Purulia,0,,,-4
313998,RMD,small_airport,Basanth Nagar Airport,18.701,79.3923,670,IN-TG,Ramagundam,0,VORG,RMD,-4
313997,VORG,small_airport,Basanth Nagar Airport,18.701,79.3923,670,IN-U-A,Ramagundam,0,VORG,RMD,-4
317980,IN-0097,small_airport,Surichua Air Base,24.18824,87.701722,280,IN-WB,Rampurhat,0,,,-4
46609,IN-0057,closed,Rasgovindpur Airstrip,21.80508952,87.04690933,,IN-OR,Rasgovindpur,0,,,-4
46515,IN-0026,small_airport,Korba Airport,22.41416667,82.71944444,1200,IN-CT,Rumgara,0,,,-4
46555,IN-0032,heliport,Saiha Helipad,22.48858333,92.98695,,IN-MZ,Saiha,1,,,-4
46558,IN-0035,heliport,Sevoke Road Indian Army Heliport,26.7744,88.45231667,472,IN-WB,Salugara,0,,,-4
46553,IN-0030,heliport,Serchhip Helipad,23.32875,92.85606667,,IN-MZ,Serchhip,0,,,-4
46565,IN-0042,heliport,Shillong Indian Army Helipad,25.54425,91.88171667,,IN-ML,Shillong,0,,,-4
327452,VASD,medium_airport,Shirdi Airport,19.688611,74.378889,1926,IN-MM,Shirdi,1,VASD,SAG,-4
46625,IN-0062,small_airport,Shirpur Airport,21.32399879,74.95673418,,IN-MM,Shirpur,0,,,-4
46640,IN-0064,small_airport,Umaria Air Field,23.53251391,80.80821991,1510,IN-MP,Umaria,0,,,-4
46561,IN-0038,heliport,Upper Tadong Indian Army Helipad,27.30671667,88.59965,,IN-SK,Upper Tadong,0,,,-4
319166,IN-0101,small_airport,Vanasthali Airport,26.407627,75.870128,,IN-RJ,Vanasthali,0,,,-4
46557,IN-0034,small_airport,Vijay Nagar Airport,19.8841,73.84056667,,IN-MM,Vijay Nagar,0,,,-4
